{"users":[{"name":"odnim","password":"4123","token":null}],"allCities":{"Lod, Center District, IL":{"country":"IL","lat":31.9489012,"lon":34.8884857,"name":"Lod","state":"Center District"},"Lod, Aosta Valley, IT":{"country":"IT","lat":45.8443883,"lon":7.6235025,"name":"Lod","state":"Aosta Valley"},"Lod, Madhya Pradesh, IN":{"country":"IN","lat":23.65333,"lon":75.3208923,"name":"Lod","state":"Madhya Pradesh"},"London, England, GB":{"country":"GB","lat":51.5073219,"lon":-0.1276474,"name":"London","state":"England"},"City of London, England, GB":{"country":"GB","lat":51.5156177,"lon":-0.0919983,"name":"City of London","state":"England"},"London, Ontario, CA":{"country":"CA","lat":42.9832406,"lon":-81.243372,"name":"London","state":"Ontario"},"Chelsea, England, GB":{"country":"GB","lat":51.4875167,"lon":-0.1687007,"name":"Chelsea","state":"England"},"London, Kentucky, US":{"country":"US","lat":37.1289771,"lon":-84.0832646,"name":"London","state":"Kentucky"},"Tit, Adrar, DZ":{"country":"DZ","lat":26.9383021,"lon":1.4910197,"name":"Tit","state":"Adrar"},"Tit, Tamanrasset, DZ":{"country":"DZ","lat":22.965943,"lon":5.22899,"name":"Tit","state":"Tamanrasset"},"Taya, Diyala Governorate, IQ":{"country":"IQ","lat":33.8183805,"lon":44.8851479,"name":"Taya","state":"Diyala Governorate"},"`Atiyah, Al Jawf Governorate, YE":{"country":"YE","lat":16.741059,"lon":44.319542,"name":"`Atiyah","state":"Al Jawf Governorate"},"TT, Bago Region, MM":{"country":"MM","lat":18.3449742,"lon":97.0033054204086,"name":"TT","state":"Bago Region"},"Trung Tâm, Lâm Đồng Province, VN":{"country":"VN","lat":11.9400487,"lon":108.1373419,"name":"Trung Tâm","state":"Lâm Đồng Province"},"`Atat, Raymah Governorate, YE":{"country":"YE","lat":14.637253,"lon":43.630812,"name":"`Atat","state":"Raymah Governorate"},"Tata, Gorgol, MR":{"country":"MR","lat":15.860596,"lon":-12.671571,"name":"Tata","state":"Gorgol"},"Zhongxin, Heilongjiang, CN":{"country":"CN","lat":47.6844162,"lon":125.3322034,"name":"Zhongxin","state":"Heilongjiang"},"Borgloon, Limburg, BE":{"country":"BE","lat":50.80033615,"lon":5.3568152017626245,"name":"Borgloon","state":"Limburg"},"Lu, Sichuan, CN":{"country":"CN","lat":29.1539219,"lon":105.3788947,"name":"Lu","state":"Sichuan"},"Lo, West Flanders, BE":{"country":"BE","lat":50.9797507,"lon":2.7480313,"name":"Lo","state":"West Flanders"},"Lo, Houaphanh, LA":{"country":"LA","lat":19.9708,"lon":104.06622,"name":"Lo","state":"Houaphanh"},"Gg:, Arua, UG":{"country":"UG","lat":2.9843533,"lon":30.9062767,"name":"Gg:","state":"Arua"},"Gug, Punjab, PK":{"country":"PK","lat":32.191337,"lon":75.2248955,"name":"Gug","state":"Punjab"},"`Ar`ar, Northern Borders Province, SA":{"country":"SA","lat":30.9815531,"lon":41.0164788,"name":"`Ar`ar","state":"Northern Borders Province"},"`Ar`ar, Ad Dali' Governorate, YE":{"country":"YE","lat":13.8837276,"lon":44.8338562,"name":"`Ar`ar","state":"Ad Dali' Governorate"},"عرعر, Makkah Region, SA":{"country":"SA","lat":21.3508644,"lon":40.1219004,"name":"عرعر","state":"Makkah Region"},"عرعر, Medina Province, SA":{"country":"SA","lat":24.731277,"lon":38.042689,"name":"عرعر","state":"Medina Province"},"`Ar`ar, Shabwah Governorate, YE":{"country":"YE","lat":14.666667,"lon":47.2,"name":"`Ar`ar","state":"Shabwah Governorate"},"Ye, Mon, MM":{"country":"MM","lat":15.2464126,"lon":97.8520389,"name":"Ye","state":"Mon"},"Aye, Luxembourg, BE":{"country":"BE","lat":50.2213931,"lon":5.291624,"name":"Aye","state":"Luxembourg"},"East, Groningen, NL":{"country":"NL","lat":53.2322393,"lon":6.614897182086109,"name":"East","state":"Groningen"},"East, Adjumani, UG":{"country":"UG","lat":3.360672,"lon":31.695825,"name":"East","state":"Adjumani"},"E, undefined, VN":{"country":"VN","lat":10.75327965,"lon":106.62928685,"name":"E"},"ئیێ, Erbil Governorate, IQ":{"country":"IQ","lat":36.4843194,"lon":44.5449296,"name":"ئیێ","state":"Erbil Governorate"},"`Adf, Ta'izz Governorate, YE":{"country":"YE","lat":13.629287,"lon":43.880464,"name":"`Adf","state":"Ta'izz Governorate"},"`Adf, Raymah Governorate, YE":{"country":"YE","lat":14.574815,"lon":43.801623,"name":"`Adf","state":"Raymah Governorate"},"Dorf, Zurich, CH":{"country":"CH","lat":47.5720029,"lon":8.647344,"name":"Dorf","state":"Zurich"},"Dorf, Tyrol, AT":{"country":"AT","lat":47.054991900000005,"lon":10.653678291994353,"name":"Dorf","state":"Tyrol"},"`Adf, Ad Dali' Governorate, YE":{"country":"YE","lat":13.66306,"lon":44.50556,"name":"`Adf","state":"Ad Dali' Governorate"},"Qalat ar Rakka, Diyala Governorate, IQ":{"country":"IQ","lat":33.8125684,"lon":44.618249,"name":"Qalat ar Rakka","state":"Diyala Governorate"},"Y, Hauts-de-France, FR":{"country":"FR","lat":49.8031514,"lon":2.9906764,"name":"Y","state":"Hauts-de-France"},"Yi County, Anhui, CN":{"country":"CN","lat":30.0142707,"lon":117.9030925,"name":"Yi County","state":"Anhui"},"Yixian, Anhui, CN":{"country":"CN","lat":29.9265985,"lon":117.9345987,"name":"Yixian","state":"Anhui"},"Ai, Karak, JO":{"country":"JO","lat":31.133333,"lon":35.640833,"name":"Ai","state":"Karak"},"Thiergarten, Bavaria, DE":{"country":"DE","lat":49.9043974,"lon":11.581118707253168,"name":"Thiergarten","state":"Bavaria"},"Ou, Luang Prabang, LA":{"country":"LA","lat":19.7770688,"lon":101.976956,"name":"Ou","state":"Luang Prabang"},"T, Quebec, CA":{"country":"CA","lat":45.460851,"lon":-73.4788779,"name":"T","state":"Quebec"},"Teich, Burgenland, AT":{"country":"AT","lat":47.4091816,"lon":16.4289877,"name":"Teich","state":"Burgenland"},"Teich, Hesse, DE":{"country":"DE","lat":51.2950271,"lon":9.6265284,"name":"Teich","state":"Hesse"},"Didhdhoo, Ari Atholhu Dhekunuburi, MV":{"country":"MV","lat":3.4846376,"lon":72.87757198601061,"name":"Didhdhoo","state":"Ari Atholhu Dhekunuburi"},"DD, Zaporizhia Oblast, UA":{"country":"UA","lat":47.8627671,"lon":35.2172126,"name":"DD","state":"Zaporizhia Oblast"},"Dąbie, West Pomeranian Voivodeship, PL":{"country":"PL","lat":53.4005206,"lon":14.6718496,"name":"Dąbie","state":"West Pomeranian Voivodeship"},"ދިއްދޫ, Faadhippolhu, MV":{"country":"MV","lat":5.3764114,"lon":73.3838264,"name":"ދިއްދޫ","state":"Faadhippolhu"},"Dhidhdhoo, Haa Alif, MV":{"country":"MV","lat":6.889046,"lon":73.1133538,"name":"Dhidhdhoo","state":"Haa Alif"},"Novi di Modena, Emilia-Romagna, IT":{"country":"IT","lat":44.8934392,"lon":10.9012535,"name":"Novi di Modena","state":"Emilia-Romagna"},"Nov, North District, IL":{"country":"IL","lat":32.832269,"lon":35.7831891,"name":"Nov","state":"North District"},"Nov, undefined, NO":{"country":"NO","lat":58.9317394,"lon":5.6992918,"name":"Nov"},"Nov, Qashqadaryo Region, UZ":{"country":"UZ","lat":38.8890433,"lon":67.07682367558621,"name":"Nov","state":"Qashqadaryo Region"},"Faubourg, Bourgogne-Franche-Comté, FR":{"country":"FR","lat":46.9211928,"lon":5.2923911,"name":"Faubourg","state":"Bourgogne-Franche-Comté"},"Faubourg, Aosta Valley, IT":{"country":"IT","lat":45.7183107,"lon":6.9455826,"name":"Faubourg","state":"Aosta Valley"},"Faubourg, Walloon Brabant, BE":{"country":"BE","lat":50.7263995,"lon":4.3948901,"name":"Faubourg","state":"Walloon Brabant"},"Faroe Islands, Eysturoy region, FO":{"country":"FO","lat":62.19850045,"lon":-6.817412433412175,"name":"Faroe Islands","state":"Eysturoy region"},"Norfolk Island, undefined, AU":{"country":"AU","lat":-29.0289575,"lon":167.9587289126371,"name":"Norfolk Island"},"Kerguelen Archipelago, French Southern and Antarctic Lands, FR":{"country":"FR","lat":-49.237441950000004,"lon":69.62275903679347,"name":"Kerguelen Archipelago","state":"French Southern and Antarctic Lands"},"Andaman Islands, Andaman and Nicobar Islands, IN":{"country":"IN","lat":12.61123865,"lon":92.83165406414926,"name":"Andaman Islands","state":"Andaman and Nicobar Islands"},"Chiayi, undefined, TW":{"country":"TW","lat":23.4811089,"lon":120.4535412,"name":"Chiayi"},"Festspielhügel, Bavaria, DE":{"country":"DE","lat":49.9665705,"lon":11.58202937600118,"name":"Festspielhügel","state":"Bavaria"},"f, Paraná, BR":{"country":"BR","lat":-23.4341288,"lon":-51.92690010061685,"name":"f","state":"Paraná"},"Makanda, Haut-Katanga, CD":{"country":"CD","lat":-8.6513526,"lon":27.3535904,"name":"Makanda","state":"Haut-Katanga"},"Kabanda, Haut-Katanga, CD":{"country":"CD","lat":-8.7470499,"lon":27.427765,"name":"Kabanda","state":"Haut-Katanga"},"F, undefined, VN":{"country":"VN","lat":10.753409300000001,"lon":106.62916855,"name":"F"},"Hamburg, undefined, DE":{"country":"DE","lat":53.550341,"lon":10.000654,"name":"Hamburg"},"Anıtlı, undefined, TR":{"country":"TR","lat":37.477242,"lon":41.6105621,"name":"Anıtlı"},"Uyu Uyu, Oruro, BO":{"country":"BO","lat":-18.3964597,"lon":-66.9662165,"name":"Uyu Uyu","state":"Oruro"},"Huhu, Anhui, CN":{"country":"CN","lat":32.1092747,"lon":116.0037724,"name":"Huhu","state":"Anhui"},"Huhu, undefined, SY":{"country":"SY","lat":34.8166667,"lon":36.15,"name":"Huhu"},"Huhu, Himachal Pradesh, IN":{"country":"IN","lat":31.8009231,"lon":76.9577479,"name":"Huhu","state":"Himachal Pradesh"},"Adusa, North Kordofan State, SD":{"country":"SD","lat":13.8859121,"lon":30.8533858,"name":"Adusa","state":"North Kordofan State"},"Adassi, Blue Nile State, SD":{"country":"SD","lat":11.283333,"lon":34.8,"name":"Adassi","state":"Blue Nile State"}},"history":[{"key":"Gug, Punjab, PK","user":null,"token":"8b7ff173-f751-4007-9789-6c6bafc536c9"},{"key":"عرعر, Makkah Region, SA","user":null,"token":"8b7ff173-f751-4007-9789-6c6bafc536c9"},{"key":"East, Adjumani, UG","user":null,"token":"8b7ff173-f751-4007-9789-6c6bafc536c9"},{"key":"East, Adjumani, UG","user":null,"token":"8b7ff173-f751-4007-9789-6c6bafc536c9"},{"key":"Gug, Punjab, PK","user":null,"token":"8b7ff173-f751-4007-9789-6c6bafc536c9"},{"key":"ئیێ, Erbil Governorate, IQ","user":null,"token":"8b7ff173-f751-4007-9789-6c6bafc536c9"},{"key":"`Adf, Raymah Governorate, YE","user":null,"token":"8b7ff173-f751-4007-9789-6c6bafc536c9"},{"key":"Yixian, Anhui, CN","user":null,"token":"8b7ff173-f751-4007-9789-6c6bafc536c9"},{"key":"Teich, Burgenland, AT","user":null,"token":"8b7ff173-f751-4007-9789-6c6bafc536c9"},{"key":"Gg:, Arua, UG","user":null,"token":"8b7ff173-f751-4007-9789-6c6bafc536c9"},{"key":"ދިއްދޫ, Faadhippolhu, MV","user":null,"token":"8b7ff173-f751-4007-9789-6c6bafc536c9"},{"key":"Nov, Qashqadaryo Region, UZ","user":null,"token":"8b7ff173-f751-4007-9789-6c6bafc536c9"},{"key":"Nov, Qashqadaryo Region, UZ","user":null,"token":"8b7ff173-f751-4007-9789-6c6bafc536c9"},{"key":"Nov, undefined, NO","user":null,"token":"8b7ff173-f751-4007-9789-6c6bafc536c9"},{"key":"Nov, North District, IL","user":null,"token":"8b7ff173-f751-4007-9789-6c6bafc536c9"},{"key":"Novi di Modena, Emilia-Romagna, IT","user":null,"token":"8b7ff173-f751-4007-9789-6c6bafc536c9"},{"key":"Faubourg, Walloon Brabant, BE","user":null,"token":"8b7ff173-f751-4007-9789-6c6bafc536c9"},{"key":"Faubourg, Aosta Valley, IT","user":null,"token":"8b7ff173-f751-4007-9789-6c6bafc536c9"},{"key":"Faubourg, Bourgogne-Franche-Comté, FR","user":null,"token":"8b7ff173-f751-4007-9789-6c6bafc536c9"},{"key":"Faubourg, Aosta Valley, IT","user":null,"token":"8b7ff173-f751-4007-9789-6c6bafc536c9"},{"key":"Faubourg, Walloon Brabant, BE","user":null,"token":"8b7ff173-f751-4007-9789-6c6bafc536c9"},{"key":"Kerguelen Archipelago, French Southern and Antarctic Lands, FR","user":null,"token":"8b7ff173-f751-4007-9789-6c6bafc536c9"},{"key":"Norfolk Island, undefined, AU","user":null,"token":"8b7ff173-f751-4007-9789-6c6bafc536c9"},{"key":"Chiayi, undefined, TW","user":null,"token":"8b7ff173-f751-4007-9789-6c6bafc536c9"},{"key":"Kabanda, Haut-Katanga, CD","user":null,"token":"8b7ff173-f751-4007-9789-6c6bafc536c9"},{"key":"Anıtlı, undefined, TR","user":null,"token":"8b7ff173-f751-4007-9789-6c6bafc536c9"},{"key":"Huhu, Himachal Pradesh, IN","user":null,"token":"24d81422-8fee-464e-96f2-c6437ddacdc3"},{"key":"Huhu, undefined, SY","user":null,"token":"24d81422-8fee-464e-96f2-c6437ddacdc3"},{"key":"Huhu, Anhui, CN","user":null,"token":"24d81422-8fee-464e-96f2-c6437ddacdc3"},{"key":"Adassi, Blue Nile State, SD","user":null,"token":"2eb56ee2-cab1-4098-9993-d3cffaec845b"}],"notAuthTokens":{"8b7ff173-f751-4007-9789-6c6bafc536c9":15,"24d81422-8fee-464e-96f2-c6437ddacdc3":15,"2eb56ee2-cab1-4098-9993-d3cffaec845b":15}}